{
  "stores": [
    {
      "id": "rcb6m6on0hm789v4ba",
      "name": "小芳超市良熟店",
      "address": "余杭区世纪大道西良熟新苑989号",
      "location": {
        "latitude": 30.393833,
        "longitude": 120.281751
      }
    },
    {
      "id": "h957anptskfm789v4bd",
      "name": "华先森(七贤郡店)",
      "address": "杭州市余杭区良诸七贤郡矿坑对面",
      "location": {
        "latitude": 30.348134,
        "longitude": 120.002435
      }
    },
    {
      "id": "nuv1g8pbvusm789v53v",
      "name": "福记食品",
      "address": "笕丁路168号大世界商城14幢b1号.",
      "location": {
        "latitude": 30.333038,
        "longitude": 120.222877
      }
    },
    {
      "id": "qia2ny32fcam789v5vr",
      "name": "茁壮食品f",
      "address": "笕丁路168号大世界14幢a4号",
      "location": {
        "latitude": 30.333038,
        "longitude": 120.222877
      }
    },
    {
      "id": "lacf64kkudpm789v5vs",
      "name": "杭州市拱墅区诸宏程便利店",
      "address": "杭州市拱墅区新文路33号，天堂e谷106室（园区北门进来正对门面）",
      "location": {
        "latitude": 30.336571,
        "longitude": 120.107511
      }
    },
    {
      "id": "v55o7xlskim789v6nn",
      "name": "汪洋批发商场F",
      "address": "余杭区乔井路葛家车村1组214号",
      "location": {
        "latitude": 30.349956,
        "longitude": 120.260353
      }
    },
    {
      "id": "zzp8pe1wsom789v7fi",
      "name": "苏杭汇新市店",
      "address": "湖州市德清县环西路66号",
      "location": {
        "latitude": 30.026465,
        "longitude": 120.023838
      }
    },
    {
      "id": "qasanwft0ogm789v7fj",
      "name": "磐汇",
      "address": "笕丁路168号7幢b7号.",
      "location": {
        "latitude": 30.333221,
        "longitude": 120.22438
      }
    },
    {
      "id": "4tmv35j95pm789v7fk",
      "name": "亿家汇鲜生活超市店",
      "address": "湖州市德清县君望府亿家汇鲜生活超市",
      "location": {
        "latitude": 30.346942,
        "longitude": 120.206797
      }
    },
    {
      "id": "nyo817au15nm789v87l",
      "name": "小芳君临天下店",
      "address": "东湖南路380号",
      "location": {
        "latitude": 30.405752,
        "longitude": 120.313227
      }
    },
    {
      "id": "gp7iiy4pfurm789v8zm",
      "name": "鲍玉芳副食品店",
      "address": "中国浙江省杭州市余杭区石横线",
      "location": {
        "latitude": 30.187119,
        "longitude": 119.857223
      }
    },
    {
      "id": "2f7a1dowex8m789v9rs",
      "name": "浙江美浓集团食堂超市",
      "address": "余杭区塘栖星河路春晖小区北门",
      "location": {
        "latitude": 30.490074,
        "longitude": 120.244071
      }
    },
    {
      "id": "myatjsspmrnm789v9rt",
      "name": "互惠超市(和苑店)f",
      "address": "西湖区三墩甲来路79号",
      "location": {
        "latitude": 30.338342,
        "longitude": 120.067029
      }
    },
    {
      "id": "r11wzz0bojm789vajy",
      "name": "杭州聚学林食品贸易有限公司",
      "address": "杭州市学林街1776号",
      "location": {
        "latitude": 30.315001,
        "longitude": 120.310838
      }
    },
    {
      "id": "td9pzcvqxwfm789vak0",
      "name": "久亿商贸（原勇金大世界店）",
      "address": "中国浙江省杭州市江干区笕丁路",
      "location": {
        "latitude": 30.32304,
        "longitude": 120.493941
      }
    },
    {
      "id": "gzn4jb8wjtqm789vbc0",
      "name": "扬阳食品批发部f",
      "address": "江干区杭海路1189号（九堡金海城对面）",
      "location": {
        "latitude": 30.308949,
        "longitude": 120.26685
      }
    },
    {
      "id": "o7q9u2tn2ddm789vbc0",
      "name": "临平小芳超市人民广场店",
      "address": "临平镇人民大道638号",
      "location": {
        "latitude": 30.412136,
        "longitude": 120.30556
      }
    },
    {
      "id": "chgzwyrhwssm789vbc1",
      "name": "左邻右舍超市荆山店",
      "address": "中国浙江省杭州市余杭区荆山湾路荆山翠谷小区门口",
      "location": {
        "latitude": 30.233182,
        "longitude": 120.0315
      }
    },
    {
      "id": "udephrtm05tm789vcvx",
      "name": "崇义路怡佳超市F",
      "address": "中国浙江省杭州市西湖区崇义路32号",
      "location": {
        "latitude": 30.281724,
        "longitude": 120.062335
      }
    },
    {
      "id": "x380q0l0n9am789vcvy",
      "name": "勾庄世纪华联f",
      "address": "杭州余杭区勾庄棕榈路61号",
      "location": {
        "latitude": 30.359772,
        "longitude": 120.086606
      }
    },
    {
      "id": "0ofo9r8f1tpm789vdo0",
      "name": "云起路建超便利店F",
      "address": "杭州市西湖区蒋村街道西溪花园.紫菱苑东门旁",
      "location": {
        "latitude": 30.283371,
        "longitude": 120.063169
      }
    },
    {
      "id": "hgi46w2zjjtm789veg1",
      "name": "小芳北大街店",
      "address": "临平北大街101-2号",
      "location": {
        "latitude": 30.422414,
        "longitude": 120.302819
      }
    },
    {
      "id": "hijxb26ft4tm789veg2",
      "name": "惠仁家园怡佳超市",
      "address": "西湖区荡鱼街慧仁家园南区1号",
      "location": {
        "latitude": 30.330493,
        "longitude": 120.077802
      }
    },
    {
      "id": "nus6n0obgvom789vf82",
      "name": "临平新洲路1065号18H便利店F",
      "address": "中国浙江省杭州市余杭区新洲路",
      "location": {
        "latitude": 30.273705,
        "longitude": 119.978742
      }
    },
    {
      "id": "4itweli10nwm789vf84",
      "name": "W余杭北苑生活超市",
      "address": "杭州市余杭区五繁慧路西溪北苑114号",
      "location": {
        "latitude": 30.29074,
        "longitude": 120.03696
      }
    },
    {
      "id": "0lsprtu5gmzcm789vg06",
      "name": "3S超市F",
      "address": "三墩镇清池路汇禾领府西商铺07号",
      "location": {
        "latitude": 30.324032,
        "longitude": 120.069987
      }
    },
    {
      "id": "msg8s5ca74gm789vg07",
      "name": "每日兴商贸",
      "address": "浙江华胜钢塑制品有限公司",
      "location": {
        "latitude": 30.209787,
        "longitude": 120.307008
      }
    },
    {
      "id": "ky2xwhaqyxm789vgs5",
      "name": "美青超市（原方桓自选）F",
      "address": "临平天荷路华惠家园门口",
      "location": {
        "latitude": 30.445747,
        "longitude": 120.317886
      }
    },
    {
      "id": "vo2gu7lgvum789vgs7",
      "name": "临平小芳横弄店",
      "address": "临平区临平街道后横弄41.43号",
      "location": {
        "latitude": 30.420679,
        "longitude": 120.302123
      }
    },
    {
      "id": "8tglrdpn22gm789vhk9",
      "name": "临平小芳超市 邱山店",
      "address": "临平镇邱山大街274号",
      "location": {
        "latitude": 30.422498,
        "longitude": 120.297889
      }
    },
    {
      "id": "c3b8qhv9149m789vhkb",
      "name": "轩轩副食西溪店",
      "address": "杭州市余杭区西溪花城东北区店32-2号",
      "location": {
        "latitude": 30.253995,
        "longitude": 120.035514
      }
    },
    {
      "id": "dessyoi2efm789vic9",
      "name": "小芳藕花洲大街",
      "address": "临平藕花洲大街185-191号",
      "location": {
        "latitude": 30.415317,
        "longitude": 120.29826
      }
    },
    {
      "id": "r4118w6q0jm789vica",
      "name": "盐仓好又多",
      "address": "盐仓镇观澜路5号",
      "location": {
        "latitude": 30.243813,
        "longitude": 120.237113
      }
    },
    {
      "id": "wclf7sum0vom789vica",
      "name": "星桥豪众超市",
      "address": "杭州市临平区五月花城藕花洲大街西段168-3",
      "location": {
        "latitude": 30.40093,
        "longitude": 120.269689
      }
    },
    {
      "id": "yrobz2njfrm789vj4b",
      "name": "绿惠超市1",
      "address": "中国浙江省杭州市余杭区学成街",
      "location": {
        "latitude": 30.273705,
        "longitude": 119.978742
      }
    },
    {
      "id": "d8xj07i77clm789vj4b",
      "name": "望月商铺杭州华联F",
      "address": "紫荆花北路37号望月商铺58号杭州华联超市",
      "location": {
        "latitude": 30.31807,
        "longitude": 120.09067
      }
    },
    {
      "id": "cjoff32rdivm789vj4b",
      "name": "麦杆超市",
      "address": "杭州市西湖区三墩镇苏嘉路中海紫藤苑商铺106",
      "location": {
        "latitude": 30.324535,
        "longitude": 120.068088
      }
    },
    {
      "id": "pic36oybw7m789vjw9",
      "name": "梁鲜笙精品生活超市北辰之光店F",
      "address": "浙江省杭州市余杭区通运街216号",
      "location": {
        "latitude": 30.34321,
        "longitude": 120.124046
      }
    },
    {
      "id": "u5ze5a2aj6pm789vkob",
      "name": "中慧后勤（妇保）",
      "address": "浙江大学医学院附属妇产科医院湖滨园区-东门",
      "location": {
        "latitude": 30.218612,
        "longitude": 120.257258
      }
    },
    {
      "id": "hde2dc3vvk8m789vkod",
      "name": "东海水景城优易品生鲜超市",
      "address": "杭州市余杭区东海水景城南门",
      "location": {
        "latitude": 30.273705,
        "longitude": 119.978742
      }
    },
    {
      "id": "itcsjhoba9fm789vkod",
      "name": "勾庄澳芙食品",
      "address": "勾庄食品市场2号市场79号",
      "location": {
        "latitude": 30.374806,
        "longitude": 120.108341
      }
    },
    {
      "id": "nly0gi777adm789vlgd",
      "name": "小芳星桥银领时代",
      "address": "杭州市余杭区星桥银领时代公寓23-5",
      "location": {
        "latitude": 30.395844,
        "longitude": 120.261994
      }
    },
    {
      "id": "nh8jm05opvem789vlge",
      "name": "浙大超市玉泉教育店",
      "address": "浙大路38号浙大玉泉校区内",
      "location": {
        "latitude": 30.268259,
        "longitude": 120.123961
      }
    },
    {
      "id": "3bnn4fwfylhm789vm8d",
      "name": "浙大教育超市启真名苑店",
      "address": "保俶路12号浙江大学西溪校区启真名苑10幢商铺1号",
      "location": {
        "latitude": 30.273854,
        "longitude": 120.143066
      }
    },
    {
      "id": "gspd2gvs53m789vn0b",
      "name": "易嘉利超市(塘栖店)",
      "address": "杭州市塘栖嘉凯城",
      "location": {
        "latitude": 30.474795,
        "longitude": 120.189635
      }
    },
    {
      "id": "qitadg4cfv9m789vnsd",
      "name": "小芳工力大厦店",
      "address": "杭州市余杭区星桥远展街59号(112-113)",
      "location": {
        "latitude": 30.381444,
        "longitude": 120.261872
      }
    },
    {
      "id": "co21wdzuql7m789vnse",
      "name": "发到家星桥南路店-糖玩",
      "address": "临平区星桥南路七彩星商业中心B1",
      "location": {
        "latitude": 30.387807,
        "longitude": 120.26233
      }
    },
    {
      "id": "zqnq5ybq8wm789vokd",
      "name": "发到家星桥南路店",
      "address": "临平区星桥南路七彩星商业中心B1",
      "location": {
        "latitude": 30.387807,
        "longitude": 120.26233
      }
    },
    {
      "id": "kgw9dtn0ufm789voke",
      "name": "优家超市F",
      "address": "通济路金地自在城",
      "location": {
        "latitude": 30.334017,
        "longitude": 120.072449
      }
    },
    {
      "id": "ob8bi3itkym789vpcf",
      "name": "易嘉利超市(瓶窑店)",
      "address": "杭州余杭瓶窑嘉凯城",
      "location": {
        "latitude": 30.381605,
        "longitude": 119.975707
      }
    },
    {
      "id": "azglqlqzsbam789vq4k",
      "name": "小芳超市天都城店",
      "address": "香榭路33号",
      "location": {
        "latitude": 30.387223,
        "longitude": 120.248528
      }
    },
    {
      "id": "j6trpszl26gm789vq4l",
      "name": "塘栖如海广济路",
      "address": "塘栖广济路158号",
      "location": {
        "latitude": 30.47131,
        "longitude": 120.187798
      }
    },
    {
      "id": "qigige58klm789vqwj",
      "name": "临平小芳塘栖（水岸锦城店）F",
      "address": "塘栖镇水岸锦城运溪路125号",
      "location": {
        "latitude": 30.465468,
        "longitude": 120.187628
      }
    },
    {
      "id": "bmqcr36v8skm789vrog",
      "name": "芳海食品",
      "address": "下沙湾南菜场内",
      "location": {
        "latitude": 30.332364,
        "longitude": 120.318248
      }
    },
    {
      "id": "whatemwb8mem789vsgd",
      "name": "铭雅苑联合一百F",
      "address": "中国浙江省杭州市余杭区金昌路",
      "location": {
        "latitude": 30.34677,
        "longitude": 120.128289
      }
    },
    {
      "id": "n7a460ex0rrm789vt8a",
      "name": "统E省（莫家桥）F",
      "address": "杭州市余杭区莫家桥村",
      "location": {
        "latitude": 30.273705,
        "longitude": 119.978742
      }
    },
    {
      "id": "vu8g0bm30ntm789vt8b",
      "name": "星桥嘉润批发",
      "address": "临平东港路183号",
      "location": {
        "latitude": 30.397238,
        "longitude": 120.257181
      }
    },
    {
      "id": "eblypr89j6m789vu09",
      "name": "上海如海莫家桥",
      "address": "莫家桥村委旁",
      "location": {
        "latitude": 30.444757,
        "longitude": 120.163183
      }
    },
    {
      "id": "jzvoivjoxmem789vu09",
      "name": "禹越好搭档（多购乐便利店）",
      "address": "禹越商益西街菜场西门木桥路36号",
      "location": {
        "latitude": 30.151818,
        "longitude": 120.359236
      }
    },
    {
      "id": "6xa6me0g3sbm789vwc1",
      "name": "星桥华先森社群折扣超市(枉山嘉苑店)",
      "address": "临平区星桥街道枉山嘉园二区二幢2-1",
      "location": {
        "latitude": 30.399,
        "longitude": 120.25863
      }
    },
    {
      "id": "1ga8d74w6tim789vwc2",
      "name": "杭州大红鹰超市有限公司",
      "address": "临平北大街160号",
      "location": {
        "latitude": 30.423529,
        "longitude": 120.302498
      }
    },
    {
      "id": "ltseqhbfhom789vwc2",
      "name": "新桥购物（原华联购物园里抖48号）",
      "address": "杭州市余杭区仁和镇新桥村园里斗同人木业旁边的华联购物园里抖48号",
      "location": {
        "latitude": 30.457566,
        "longitude": 120.142679
      }
    },
    {
      "id": "ln3qg0c1vzm789vx3z",
      "name": "小芳超市(塘栖人民路)F",
      "address": "杭州市余杭区塘栖镇人民路155号",
      "location": {
        "latitude": 30.273705,
        "longitude": 119.978742
      }
    },
    {
      "id": "nnm51gm6g0qm789vx40",
      "name": "小芳超市C龙洞店",
      "address": "临平区龙洞江南食品市场西侧",
      "location": {
        "latitude": 30.413431,
        "longitude": 120.223312
      }
    },
    {
      "id": "nkr83aexz9dm789vxvx",
      "name": "小芳塘栖里仁路店F",
      "address": "塘栖里仁路1号",
      "location": {
        "latitude": 30.481495,
        "longitude": 120.190905
      }
    },
    {
      "id": "x9mll0qd3t8m789vxvx",
      "name": "临平绿惠超市F",
      "address": "杭州市余杭区临平兴国路195号",
      "location": {
        "latitude": 30.426315,
        "longitude": 120.261794
      }
    },
    {
      "id": "0tpyi7hl9guom789vynu",
      "name": "才法副食",
      "address": "雷甸一新大街308号",
      "location": {
        "latitude": 30.457287,
        "longitude": 120.127168
      }
    },
    {
      "id": "84c8u9b30trm789vzfw",
      "name": "盛汇时代精品超市",
      "address": "湖州市德清县白云南路1188号洋华运河城市生活广场",
      "location": {
        "latitude": 30.182851,
        "longitude": 120.250968
      }
    },
    {
      "id": "3e7nl257rdhm789w07v",
      "name": "雷甸盛汇时代(孔雀城店)",
      "address": "湖州德清雷甸镇孔雀城",
      "location": {
        "latitude": 30.457287,
        "longitude": 120.127168
      }
    },
    {
      "id": "hxzhue6mh7mm789w2jo",
      "name": "黄湖红云批发部f",
      "address": "黄湖通达路32号",
      "location": {
        "latitude": 30.449208,
        "longitude": 119.811704
      }
    },
    {
      "id": "olhstfa3tcm789w3bm",
      "name": "颂购便利店F",
      "address": "杭州市临平区蒋家浜路318号A幢",
      "location": {
        "latitude": 30.375148,
        "longitude": 120.14122
      }
    },
    {
      "id": "tilhem32dydm789w43m",
      "name": "红星二锅头好又多超市（原好又多崇福山居69号F）",
      "address": "杭州市余杭区良渚镇良渚街道崇福山居东区八排69号",
      "location": {
        "latitude": 30.352183,
        "longitude": 120.021675
      }
    }
  ],
  "unlocatedStores": [
    {
      "id": "xuj90ucfteim789v4bd",
      "name": "小芳超市闵家桥店",
      "address": "嘉兴海宁市南大街闵家桥锦苑9幢2号"
    },
    {
      "id": "rj9m312gjxmm789v53w",
      "name": "九千客（德清店）",
      "address": "中国浙江省湖州市德清县保利原乡千秋东街1999号"
    },
    {
      "id": "bf1o7hf9u8hm789v8zl",
      "name": "禹越小康百货商行F",
      "address": "浙江省湖州市德清县禹越镇新兴街81-83号正南方向90米"
    },
    {
      "id": "qc6y913o0pm789v8zm",
      "name": "武康下柏根平超市",
      "address": "湖州市德清县武康镇下柏街放心超市"
    },
    {
      "id": "6nzunyh1exm789v9rt",
      "name": "征球.大世界",
      "address": "8幢a9.b9大世界商城8幢A9号"
    },
    {
      "id": "1pj4do765hohm789vdnz",
      "name": "德清世纪联华",
      "address": "湖州市德清县下诸湖四都村"
    },
    {
      "id": "sjya0ryngem789vdo0",
      "name": "德清禹越欧润",
      "address": "湖州市德清县禹越镇振兴路越盛花园"
    },
    {
      "id": "1kycszr1h0bm789veg0",
      "name": "海港周王庙二店",
      "address": "海宁市周王庙镇诚信路18号"
    },
    {
      "id": "a55h79bttwsm789vgs7",
      "name": "海港钱塘江店",
      "address": "海宁市周王庙镇石井万花街42号"
    },
    {
      "id": "s5qeyr1kqdm789vjw7",
      "name": "园区服务中心便利店（原微海二店）",
      "address": "湖州市德清县乾元镇乾龙中路16号"
    },
    {
      "id": "p00eqh8vm5m789vn0d",
      "name": "海港沈士店",
      "address": "海宁市许村镇沈士街文胜路20号"
    },
    {
      "id": "e42s52acggm789vpcg",
      "name": "德清龙栖庭院便利店",
      "address": "中国浙江省湖州市德清县龙门街26号"
    },
    {
      "id": "pvu76lntq2em789vpcg",
      "name": "德清启龙食品商行",
      "address": "湖州市德清县跨塘街172号"
    },
    {
      "id": "odfncslhaihm789vu08",
      "name": "海港许村一店",
      "address": "海宁市许村镇勤俭路1号"
    },
    {
      "id": "k7o64wp46lm789vus8",
      "name": "新世纪华联生鲜超市",
      "address": "湖州市德清县西郊路152号"
    },
    {
      "id": "8g5vgb1r3q2m789vx40",
      "name": "海港家纺城店",
      "address": "海宁市许村镇七号桥市场路9号"
    },
    {
      "id": "7ymcxc89ijpm789vynv",
      "name": "德清县振兴路西港生活超市",
      "address": "浙江省湖州市德清县振兴路633"
    },
    {
      "id": "l84uahewnecm789vzfv",
      "name": "嘉兴万悦贸易商行",
      "address": "海宁市许村镇前进村连树组村委大楼202室"
    },
    {
      "id": "la5snu38pnsm789w1ro",
      "name": "海港郭三店",
      "address": "海宁市盐官镇郭店建设路164号"
    },
    {
      "id": "ibpm7acu7fm789w3bl",
      "name": "德清雅颂府便利店",
      "address": "湖州市德清县雷甸镇孔雀城京杭上宸雅颂府东门旁"
    },
    {
      "id": "m27uvafdffm789w3bm",
      "name": "德清利民便利店",
      "address": "湖州市德清县湖山路"
    }
  ]
}