{
  "stores": [
    {
      "id": "tubpqztph9lm56kgypp",
      "name": "小芳超市良熟店",
      "address": "余杭区世纪大道西良熟新苑989号",
      "location": {
        "latitude": 30.393833,
        "longitude": 120.281751
      }
    },
    {
      "id": "b68vsjep08vm56kgypp",
      "name": "华先森(七贤郡店)",
      "address": "杭州市余杭区良诸七贤郡矿坑对面",
      "location": {
        "latitude": 30.348134,
        "longitude": 120.002435
      }
    },
    {
      "id": "m4x6zbwr3em56kgzow",
      "name": "福记食品",
      "address": "笕丁路168号大世界商城14幢b1号.",
      "location": {
        "latitude": 30.333038,
        "longitude": 120.222877
      }
    },
    {
      "id": "4ss57b1q766m56kh0jl",
      "name": "茁壮食品f",
      "address": "笕丁路168号大世界14幢a4号",
      "location": {
        "latitude": 30.333038,
        "longitude": 120.222877
      }
    },
    {
      "id": "1g9mxe6cndam56kh0jn",
      "name": "杭州市拱墅区诸宏程便利店",
      "address": "杭州市拱墅区新文路33号，天堂e谷106室（园区北门进来正对门面）",
      "location": {
        "latitude": 30.336571,
        "longitude": 120.107511
      }
    },
    {
      "id": "2j87lgvl0fzm56kh1bk",
      "name": "汪洋批发商场F",
      "address": "余杭区乔井路葛家车村1组214号",
      "location": {
        "latitude": 30.349956,
        "longitude": 120.260353
      }
    },
    {
      "id": "kru7g38e0ram56kh23m",
      "name": "苏杭汇新市店",
      "address": "湖州市德清县环西路66号",
      "location": {
        "latitude": 30.026465,
        "longitude": 120.023838
      }
    },
    {
      "id": "ogff6jlyq1m56kh23n",
      "name": "磐汇",
      "address": "笕丁路168号7幢b7号.",
      "location": {
        "latitude": 30.333221,
        "longitude": 120.22438
      }
    },
    {
      "id": "ruetnbgq4km56kh23o",
      "name": "亿家汇鲜生活超市店",
      "address": "湖州市德清县君望府亿家汇鲜生活超市",
      "location": {
        "latitude": 30.346942,
        "longitude": 120.206797
      }
    },
    {
      "id": "ea4kxbnp0mvm56kh2vm",
      "name": "小芳君临天下店",
      "address": "东湖南路380号",
      "location": {
        "latitude": 30.405752,
        "longitude": 120.313227
      }
    },
    {
      "id": "dxczyhdltunm56kh3nq",
      "name": "鲍玉芳副食品店",
      "address": "中国浙江省杭州市余杭区石横线",
      "location": {
        "latitude": 30.187119,
        "longitude": 119.857223
      }
    },
    {
      "id": "txve6z8zj6m56kh4iy",
      "name": "浙江美浓集团食堂超市",
      "address": "余杭区塘栖星河路春晖小区北门",
      "location": {
        "latitude": 30.490074,
        "longitude": 120.244071
      }
    },
    {
      "id": "03cqjhg53lwwm56kh4j0",
      "name": "互惠超市(和苑店)f",
      "address": "西湖区三墩甲来路79号",
      "location": {
        "latitude": 30.338342,
        "longitude": 120.067029
      }
    },
    {
      "id": "47nwaaafr0xm56kh5dt",
      "name": "杭州聚学林食品贸易有限公司",
      "address": "杭州市学林街1776号",
      "location": {
        "latitude": 30.315001,
        "longitude": 120.310838
      }
    },
    {
      "id": "ojwc4qm4508m56kh5dv",
      "name": "久亿商贸（原勇金大世界店）",
      "address": "中国浙江省杭州市江干区笕丁路",
      "location": {
        "latitude": 30.32304,
        "longitude": 120.493941
      }
    },
    {
      "id": "rt3spp7d6rrm56kh65s",
      "name": "扬阳食品批发部f",
      "address": "江干区杭海路1189号（九堡金海城对面）",
      "location": {
        "latitude": 30.308949,
        "longitude": 120.26685
      }
    },
    {
      "id": "tjrgodbh1xgm56kh65u",
      "name": "临平小芳超市人民广场店",
      "address": "临平镇人民大道638号",
      "location": {
        "latitude": 30.412136,
        "longitude": 120.30556
      }
    },
    {
      "id": "12uyey67krm56kh65v",
      "name": "左邻右舍超市荆山店",
      "address": "中国浙江省杭州市余杭区荆山湾路荆山翠谷小区门口",
      "location": {
        "latitude": 30.233182,
        "longitude": 120.0315
      }
    },
    {
      "id": "1xh9xgsrh1um56kh7po",
      "name": "崇义路怡佳超市F",
      "address": "中国浙江省杭州市西湖区崇义路32号",
      "location": {
        "latitude": 30.281724,
        "longitude": 120.062335
      }
    },
    {
      "id": "s76yhll8pa9m56kh7po",
      "name": "勾庄世纪华联f",
      "address": "杭州余杭区勾庄棕榈路61号",
      "location": {
        "latitude": 30.359772,
        "longitude": 120.086606
      }
    },
    {
      "id": "ooz3irg0dgm56kh8ho",
      "name": "云起路建超便利店F",
      "address": "杭州市西湖区蒋村街道西溪花园.紫菱苑东门旁",
      "location": {
        "latitude": 30.283371,
        "longitude": 120.063169
      }
    },
    {
      "id": "3jl7ks983lkm56kh9cv",
      "name": "小芳北大街店",
      "address": "临平北大街101-2号",
      "location": {
        "latitude": 30.422414,
        "longitude": 120.302819
      }
    },
    {
      "id": "4hzv5pzrf5bm56kh9cv",
      "name": "惠仁家园怡佳超市",
      "address": "西湖区荡鱼街慧仁家园南区1号",
      "location": {
        "latitude": 30.330493,
        "longitude": 120.077802
      }
    },
    {
      "id": "tfd42kaecsm56kha4u",
      "name": "临平新洲路1065号18H便利店F",
      "address": "中国浙江省杭州市余杭区新洲路",
      "location": {
        "latitude": 30.273705,
        "longitude": 119.978742
      }
    },
    {
      "id": "4fk36zcx3e9m56kha4v",
      "name": "W余杭北苑生活超市",
      "address": "杭州市余杭区五繁慧路西溪北苑114号",
      "location": {
        "latitude": 30.29074,
        "longitude": 120.03696
      }
    },
    {
      "id": "yboma31utxkm56khaws",
      "name": "3S超市F",
      "address": "三墩镇清池路汇禾领府西商铺07号",
      "location": {
        "latitude": 30.324032,
        "longitude": 120.069987
      }
    },
    {
      "id": "cdq1v7ydjxom56khawu",
      "name": "每日兴商贸",
      "address": "浙江华胜钢塑制品有限公司",
      "location": {
        "latitude": 30.209787,
        "longitude": 120.307008
      }
    },
    {
      "id": "k7175i8bjfm56khboq",
      "name": "美青超市（原方桓自选）F",
      "address": "临平天荷路华惠家园门口",
      "location": {
        "latitude": 30.445747,
        "longitude": 120.317886
      }
    },
    {
      "id": "g7jzbsqsy59m56khboq",
      "name": "临平小芳横弄店",
      "address": "临平区临平街道后横弄41.43号",
      "location": {
        "latitude": 30.420679,
        "longitude": 120.302123
      }
    },
    {
      "id": "9ku273g4ifwm56khcis",
      "name": "临平小芳超市 邱山店",
      "address": "临平镇邱山大街274号",
      "location": {
        "latitude": 30.422498,
        "longitude": 120.297889
      }
    },
    {
      "id": "inde7rb96jqm56khcj0",
      "name": "轩轩副食西溪店",
      "address": "杭州市余杭区西溪花城东北区店32-2号",
      "location": {
        "latitude": 30.253995,
        "longitude": 120.035514
      }
    },
    {
      "id": "yctnqpf3etm56khdaw",
      "name": "小芳藕花洲大街",
      "address": "临平藕花洲大街185-191号",
      "location": {
        "latitude": 30.415317,
        "longitude": 120.29826
      }
    },
    {
      "id": "nwzoi7vwze8m56khday",
      "name": "盐仓好又多",
      "address": "盐仓镇观澜路5号",
      "location": {
        "latitude": 30.243813,
        "longitude": 120.237113
      }
    },
    {
      "id": "hg3v5dc3ydim56khday",
      "name": "星桥豪众超市",
      "address": "杭州市临平区五月花城藕花洲大街西段168-3",
      "location": {
        "latitude": 30.40093,
        "longitude": 120.269689
      }
    },
    {
      "id": "i7vszpimzhlm56khe2x",
      "name": "绿惠超市1",
      "address": "中国浙江省杭州市余杭区学成街",
      "location": {
        "latitude": 30.273705,
        "longitude": 119.978742
      }
    },
    {
      "id": "anxkqx12x05m56khe2y",
      "name": "望月商铺杭州华联F",
      "address": "紫荆花北路37号望月商铺58号杭州华联超市",
      "location": {
        "latitude": 30.31807,
        "longitude": 120.09067
      }
    },
    {
      "id": "8vznqbczu5um56khe2z",
      "name": "麦杆超市",
      "address": "杭州市西湖区三墩镇苏嘉路中海紫藤苑商铺106",
      "location": {
        "latitude": 30.324535,
        "longitude": 120.068088
      }
    },
    {
      "id": "yqx13zeun98m56kheuz",
      "name": "梁鲜笙精品生活超市北辰之光店F",
      "address": "浙江省杭州市余杭区通运街216号",
      "location": {
        "latitude": 30.34321,
        "longitude": 120.124046
      }
    },
    {
      "id": "j7rgbdh1c1m56khfqc",
      "name": "中慧后勤（妇保）",
      "address": "浙江大学医学院附属妇产科医院湖滨园区-东门",
      "location": {
        "latitude": 30.218612,
        "longitude": 120.257258
      }
    },
    {
      "id": "o8eozm80y6em56khfqd",
      "name": "东海水景城优易品生鲜超市",
      "address": "杭州市余杭区东海水景城南门",
      "location": {
        "latitude": 30.273705,
        "longitude": 119.978742
      }
    },
    {
      "id": "qr17ewzxukem56khfqe",
      "name": "勾庄澳芙食品",
      "address": "勾庄食品市场2号市场79号",
      "location": {
        "latitude": 30.374806,
        "longitude": 120.108341
      }
    },
    {
      "id": "xoox0w9h9xpm56khgid",
      "name": "小芳星桥银领时代",
      "address": "杭州市余杭区星桥银领时代公寓23-5",
      "location": {
        "latitude": 30.395844,
        "longitude": 120.261994
      }
    },
    {
      "id": "pd2uniuq1ggm56khgig",
      "name": "浙大超市玉泉教育店",
      "address": "浙大路38号浙大玉泉校区内",
      "location": {
        "latitude": 30.268259,
        "longitude": 120.123961
      }
    },
    {
      "id": "9xt51k2b4vnm56khhad",
      "name": "浙大教育超市启真名苑店",
      "address": "保俶路12号浙江大学西溪校区启真名苑10幢商铺1号",
      "location": {
        "latitude": 30.273854,
        "longitude": 120.143066
      }
    },
    {
      "id": "dsccfjmol9um56khi2c",
      "name": "易嘉利超市(塘栖店)",
      "address": "杭州市塘栖嘉凯城",
      "location": {
        "latitude": 30.474795,
        "longitude": 120.189635
      }
    },
    {
      "id": "lv8ebqrbwcsm56khixf",
      "name": "小芳工力大厦店",
      "address": "杭州市余杭区星桥远展街59号(112-113)",
      "location": {
        "latitude": 30.381444,
        "longitude": 120.261872
      }
    },
    {
      "id": "t8no17ba8sm56khixg",
      "name": "发到家星桥南路店-糖玩",
      "address": "临平区星桥南路七彩星商业中心B1",
      "location": {
        "latitude": 30.387807,
        "longitude": 120.26233
      }
    },
    {
      "id": "m7xl1jg44um56khjp9",
      "name": "发到家星桥南路店",
      "address": "临平区星桥南路七彩星商业中心B1",
      "location": {
        "latitude": 30.387807,
        "longitude": 120.26233
      }
    },
    {
      "id": "uc358n4xy9m56khjpa",
      "name": "优家超市F",
      "address": "通济路金地自在城",
      "location": {
        "latitude": 30.334017,
        "longitude": 120.072449
      }
    },
    {
      "id": "m6m9xgxppom56khkh8",
      "name": "易嘉利超市(瓶窑店)",
      "address": "杭州余杭瓶窑嘉凯城",
      "location": {
        "latitude": 30.381605,
        "longitude": 119.975707
      }
    },
    {
      "id": "m9w8ei5l9ym56khldg",
      "name": "小芳超市天都城店",
      "address": "香榭路33号",
      "location": {
        "latitude": 30.387223,
        "longitude": 120.248528
      }
    },
    {
      "id": "dhkor9joxlm56khldi",
      "name": "塘栖如海广济路",
      "address": "塘栖广济路158号",
      "location": {
        "latitude": 30.47131,
        "longitude": 120.187798
      }
    },
    {
      "id": "sudn1cvvq0om56khm5d",
      "name": "临平小芳塘栖（水岸锦城店）F",
      "address": "塘栖镇水岸锦城运溪路125号",
      "location": {
        "latitude": 30.465468,
        "longitude": 120.187628
      }
    },
    {
      "id": "1en5cg77bp1m56khmxb",
      "name": "芳海食品",
      "address": "下沙湾南菜场内",
      "location": {
        "latitude": 30.332364,
        "longitude": 120.318248
      }
    },
    {
      "id": "wgyz58i9xrm56khnp8",
      "name": "铭雅苑联合一百F",
      "address": "中国浙江省杭州市余杭区金昌路",
      "location": {
        "latitude": 30.34677,
        "longitude": 120.128289
      }
    },
    {
      "id": "5pa88136bkam56khoh5",
      "name": "统E省（莫家桥）F",
      "address": "杭州市余杭区莫家桥村",
      "location": {
        "latitude": 30.273705,
        "longitude": 119.978742
      }
    },
    {
      "id": "ezhdpf88s7am56khoh6",
      "name": "星桥嘉润批发",
      "address": "临平东港路183号",
      "location": {
        "latitude": 30.397238,
        "longitude": 120.257181
      }
    },
    {
      "id": "lvm6r5o0r1m56khp9h",
      "name": "上海如海莫家桥",
      "address": "莫家桥村委旁",
      "location": {
        "latitude": 30.444757,
        "longitude": 120.163183
      }
    },
    {
      "id": "tj9jdt658uim56khp9j",
      "name": "禹越好搭档（多购乐便利店）",
      "address": "禹越商益西街菜场西门木桥路36号",
      "location": {
        "latitude": 30.151818,
        "longitude": 120.359236
      }
    },
    {
      "id": "2bh8t7knww3m56khrnz",
      "name": "星桥华先森社群折扣超市(枉山嘉苑店)",
      "address": "临平区星桥街道枉山嘉园二区二幢2-1",
      "location": {
        "latitude": 30.399,
        "longitude": 120.25863
      }
    },
    {
      "id": "onoqv91bkulm56khro0",
      "name": "杭州大红鹰超市有限公司",
      "address": "临平北大街160号",
      "location": {
        "latitude": 30.423529,
        "longitude": 120.302498
      }
    },
    {
      "id": "9zkhsba9hygm56khro1",
      "name": "新桥购物（原华联购物园里抖48号）",
      "address": "杭州市余杭区仁和镇新桥村园里斗同人木业旁边的华联购物园里抖48号",
      "location": {
        "latitude": 30.457566,
        "longitude": 120.142679
      }
    },
    {
      "id": "aste9tjec86m56khsfz",
      "name": "小芳超市(塘栖人民路)F",
      "address": "杭州市余杭区塘栖镇人民路155号",
      "location": {
        "latitude": 30.273705,
        "longitude": 119.978742
      }
    },
    {
      "id": "qp6467nxoylm56khsg0",
      "name": "小芳超市C龙洞店",
      "address": "临平区龙洞江南食品市场西侧",
      "location": {
        "latitude": 30.413431,
        "longitude": 120.223312
      }
    },
    {
      "id": "4111gihbye3m56kht7x",
      "name": "小芳塘栖里仁路店F",
      "address": "塘栖里仁路1号",
      "location": {
        "latitude": 30.481495,
        "longitude": 120.190905
      }
    },
    {
      "id": "lgnbg2guzipm56kht7z",
      "name": "临平绿惠超市F",
      "address": "杭州市余杭区临平兴国路195号",
      "location": {
        "latitude": 30.426315,
        "longitude": 120.261794
      }
    },
    {
      "id": "i27n1c0mtkm56khtzy",
      "name": "才法副食",
      "address": "雷甸一新大街308号",
      "location": {
        "latitude": 30.457287,
        "longitude": 120.127168
      }
    },
    {
      "id": "xx385knybaem56khuwd",
      "name": "盛汇时代精品超市",
      "address": "湖州市德清县白云南路1188号洋华运河城市生活广场",
      "location": {
        "latitude": 30.182851,
        "longitude": 120.250968
      }
    },
    {
      "id": "3yox2d92oklm56khvs1",
      "name": "雷甸盛汇时代(孔雀城店)",
      "address": "湖州德清雷甸镇孔雀城",
      "location": {
        "latitude": 30.457287,
        "longitude": 120.127168
      }
    },
    {
      "id": "3di447lzkifm56khy71",
      "name": "黄湖红云批发部f",
      "address": "黄湖通达路32号",
      "location": {
        "latitude": 30.449208,
        "longitude": 119.811704
      }
    },
    {
      "id": "6kgx5smpcgsm56khyyy",
      "name": "颂购便利店F",
      "address": "杭州市临平区蒋家浜路318号A幢",
      "location": {
        "latitude": 30.375148,
        "longitude": 120.14122
      }
    },
    {
      "id": "mial6vee71nm56khzv9",
      "name": "红星二锅头好又多超市（原好又多崇福山居69号F）",
      "address": "杭州市余杭区良渚镇良渚街道崇福山居东区八排69号",
      "location": {
        "latitude": 30.352183,
        "longitude": 120.021675
      }
    }
  ],
  "unlocatedStores": [
    {
      "id": "3h0ampxv02gm56kgypp",
      "name": "小芳超市闵家桥店",
      "address": "嘉兴海宁市南大街闵家桥锦苑9幢2号"
    },
    {
      "id": "jctfpacd8tfm56kgzow",
      "name": "九千客（德清店）",
      "address": "中国浙江省湖州市德清县保利原乡千秋东街1999号"
    },
    {
      "id": "dpzz1ljb6a8m56kh3nm",
      "name": "禹越小康百货商行F",
      "address": "浙江省湖州市德清县禹越镇新兴街81-83号正南方向90米"
    },
    {
      "id": "j3nbno05ism56kh3np",
      "name": "武康下柏根平超市",
      "address": "湖州市德清县武康镇下柏街放心超市"
    },
    {
      "id": "w9wouwgm33fm56kh4j0",
      "name": "征球.大世界",
      "address": "8幢a9.b9大世界商城8幢A9号"
    },
    {
      "id": "y2rhu6yhztbm56kh8hl",
      "name": "德清世纪联华",
      "address": "湖州市德清县下诸湖四都村"
    },
    {
      "id": "7ke166hryidm56kh8hn",
      "name": "德清禹越欧润",
      "address": "湖州市德清县禹越镇振兴路越盛花园"
    },
    {
      "id": "twyyp8l4krjm56kh9cs",
      "name": "海港周王庙二店",
      "address": "海宁市周王庙镇诚信路18号"
    },
    {
      "id": "ier3nvj8tdm56khboq",
      "name": "海港钱塘江店",
      "address": "海宁市周王庙镇石井万花街42号"
    },
    {
      "id": "rimmkmoge9m56kheux",
      "name": "园区服务中心便利店（原微海二店）",
      "address": "湖州市德清县乾元镇乾龙中路16号"
    },
    {
      "id": "zz787bbxo6m56khi2d",
      "name": "海港沈士店",
      "address": "海宁市许村镇沈士街文胜路20号"
    },
    {
      "id": "iqoccsf32tem56khkh9",
      "name": "德清龙栖庭院便利店",
      "address": "中国浙江省湖州市德清县龙门街26号"
    },
    {
      "id": "55su8k6tkjsm56khkha",
      "name": "德清启龙食品商行",
      "address": "湖州市德清县跨塘街172号"
    },
    {
      "id": "oaj4ihn2rrrm56khp9g",
      "name": "海港许村一店",
      "address": "海宁市许村镇勤俭路1号"
    },
    {
      "id": "726s1txm4qim56khq1f",
      "name": "新世纪华联生鲜超市",
      "address": "湖州市德清县西郊路152号"
    },
    {
      "id": "yhkmfw6v3gcm56khsg0",
      "name": "海港家纺城店",
      "address": "海宁市许村镇七号桥市场路9号"
    },
    {
      "id": "5s5fiev16ndm56khu01",
      "name": "德清县振兴路西港生活超市",
      "address": "浙江省湖州市德清县振兴路633"
    },
    {
      "id": "lz24eoty2em56khuw7",
      "name": "嘉兴万悦贸易商行",
      "address": "海宁市许村镇前进村连树组村委大楼202室"
    },
    {
      "id": "jo7cokr1f9pm56khxc0",
      "name": "海港郭三店",
      "address": "海宁市盐官镇郭店建设路164号"
    },
    {
      "id": "ow39o2j5btm56khyyx",
      "name": "德清雅颂府便利店",
      "address": "湖州市德清县雷甸镇孔雀城京杭上宸雅颂府东门旁"
    },
    {
      "id": "93r3nr68wnjm56khyyy",
      "name": "德清利民便利店",
      "address": "湖州市德清县湖山路"
    }
  ]
}