{
  "stores": [
    {
      "id": "7ll7psiulum56hyoam",
      "name": "粮油市场婉云食品",
      "address": "通运街52   54号",
      "location": {
        "latitude": 30.343911,
        "longitude": 120.110783
      }
    },
    {
      "id": "gqwek9oyye8m56hyoam",
      "name": "坪里好又多f",
      "address": "杭州余杭区百丈坪里农居点",
      "location": {
        "latitude": 30.284582,
        "longitude": 120.030302
      }
    },
    {
      "id": "c4548kggf5m56hyp5e",
      "name": "老余杭城东路小芳F",
      "address": "中国浙江省杭州市余杭区联兴路",
      "location": {
        "latitude": 30.263786,
        "longitude": 119.942707
      }
    },
    {
      "id": "r3c9w4h1dwjm56hyp5k",
      "name": "乔司小芳F",
      "address": "乔司桥术中路",
      "location": {
        "latitude": 30.349716,
        "longitude": 120.277305
      }
    },
    {
      "id": "i6lb1awwbupm56hypxg",
      "name": "灵峰超市统配F",
      "address": "杭州市钱塘区10号大街36号A03幢",
      "location": {
        "latitude": 30.295622,
        "longitude": 120.354591
      }
    },
    {
      "id": "ka01hp716trm56hyqpi",
      "name": "金阳光生活超市（临平店）f",
      "address": "临平东湖北路农贸市场",
      "location": {
        "latitude": 30.448878,
        "longitude": 120.301502
      }
    },
    {
      "id": "kfz69yes8am56hyrhe",
      "name": "崇贤时代联华F",
      "address": "崇超路15-18号",
      "location": {
        "latitude": 30.390877,
        "longitude": 120.176314
      }
    },
    {
      "id": "s4kqhojy3zm56hyrhf",
      "name": "久久狮山店（狮子山路2号）",
      "address": "杭州老余杭狮子山路2号",
      "location": {
        "latitude": 30.314052,
        "longitude": 119.724842
      }
    },
    {
      "id": "v5aabgoa5vm56hys9b",
      "name": "华滕生活超市坪里",
      "address": "浙江省杭州市余杭区G235",
      "location": {
        "latitude": 30.273705,
        "longitude": 119.978742
      }
    },
    {
      "id": "l4w248n68om56hys9l",
      "name": "永涛超市运河店F",
      "address": "东湖北路",
      "location": {
        "latitude": 30.461433,
        "longitude": 120.297953
      }
    },
    {
      "id": "fkwlmy08ko5m56hyt1i",
      "name": "日红副食品配送F",
      "address": "乔司桃安路2号",
      "location": {
        "latitude": 30.347972,
        "longitude": 120.292853
      }
    },
    {
      "id": "zwl7zdknjam56hyttd",
      "name": "杭千",
      "address": "通运街97号",
      "location": {
        "latitude": 30.343824,
        "longitude": 120.114593
      }
    },
    {
      "id": "0qgxilcv7r3mm56hyttd",
      "name": "余杭区良渚纤石村纤嘉惠生活超市",
      "address": "中国浙江省杭州市余杭区良渚良安路1949号",
      "location": {
        "latitude": 30.393254,
        "longitude": 120.053448
      }
    },
    {
      "id": "0dx1jdxj3dchm56hyttd",
      "name": "崇贤众望街小芳超市",
      "address": "杭州市余杭区众望街56号",
      "location": {
        "latitude": 30.388411,
        "longitude": 120.174976
      }
    },
    {
      "id": "28pkwzytc6pm56hyul8",
      "name": "乔司集麦隆超市",
      "address": "乔司街道桃安路97号",
      "location": {
        "latitude": 30.346738,
        "longitude": 120.292676
      }
    },
    {
      "id": "i4asx8zawehm56hyul9",
      "name": "杭州百丈竹乡超市F",
      "address": "百丈竹城路92号",
      "location": {
        "latitude": 30.523357,
        "longitude": 119.729234
      }
    },
    {
      "id": "uz6l05f4r7jm56hyvd3",
      "name": "小芳凤凰山店f",
      "address": "老余杭凤山路413号",
      "location": {
        "latitude": 30.266365,
        "longitude": 119.945422
      }
    },
    {
      "id": "63nmasbyuuvm56hyvd4",
      "name": "易品购物(原亭耻华联购物F)",
      "address": "亭耻银桥路8号",
      "location": {
        "latitude": 30.468242,
        "longitude": 120.308462
      }
    },
    {
      "id": "1e920pz2uwfm56hyw56",
      "name": "康桥辉杭",
      "address": "拱墅区丽水北路777号杭州海外海运河大厦裙楼一楼",
      "location": {
        "latitude": 30.367696,
        "longitude": 120.136765
      }
    },
    {
      "id": "d0e4coq4lgwm56hyw56",
      "name": "久久捷家安乐路店",
      "address": "老余杭街道安乐路91号",
      "location": {
        "latitude": 30.271489,
        "longitude": 119.939936
      }
    },
    {
      "id": "r3sufg3hx9m56hywx3",
      "name": "百丈杭州华联f",
      "address": "杭州余杭区百丈镇百兴路",
      "location": {
        "latitude": 30.524269,
        "longitude": 119.729833
      }
    },
    {
      "id": "1tgpmec6j99m56hywx3",
      "name": "礼铭粮油市场",
      "address": "祥运路126号",
      "location": {
        "latitude": 30.339275,
        "longitude": 120.128349
      }
    },
    {
      "id": "lj2uf6dq3wom56hywx4",
      "name": "久久超市安乐路店",
      "address": "杭州市余杭区安乐路118号",
      "location": {
        "latitude": 30.271201,
        "longitude": 119.940632
      }
    },
    {
      "id": "0rf8ld3kcspcm56hyxp4",
      "name": "欧易得F",
      "address": "博路鹿溪路48号",
      "location": {
        "latitude": 30.498954,
        "longitude": 120.307385
      }
    },
    {
      "id": "8fuqs0bumovm56hyxp4",
      "name": "上亿广场大润发",
      "address": "勾庄逸盛路吴家门路口",
      "location": {
        "latitude": 30.378729,
        "longitude": 120.117826
      }
    },
    {
      "id": "wipvc6xuzi9m56hyygz",
      "name": "乔司镇久洲惠超市",
      "address": "杭州市余杭区乔司镇石塘东路79号",
      "location": {
        "latitude": 30.333219,
        "longitude": 120.290281
      }
    },
    {
      "id": "6ruh22t1vjhm56hyzbt",
      "name": "航瑞副食品商行",
      "address": "杭州市沈港路7号2楼",
      "location": {
        "latitude": 30.358067,
        "longitude": 120.102457
      }
    },
    {
      "id": "996xoeqfonhm56hyzbu",
      "name": "连友商贸",
      "address": "双陈路双陈实业2楼",
      "location": {
        "latitude": 30.396264,
        "longitude": 120.101369
      }
    },
    {
      "id": "k021knpzwksm56hz03p",
      "name": "钟管如海超市",
      "address": "德清县钟管镇南湖路302号",
      "location": {
        "latitude": 30.26906,
        "longitude": 119.93027
      }
    },
    {
      "id": "ec0nng46ny4m56hz03p",
      "name": "亮亮副食品批发F",
      "address": "杭州市余杭区闲林文卫路与闲林中路交叉口西南方向101米",
      "location": {
        "latitude": 30.22091,
        "longitude": 119.99183
      }
    },
    {
      "id": "p8phq3vk5em56hz0yp",
      "name": "香溢便利店 原（水口头品全超市）",
      "address": "余杭区良渚街道荀山村水口头40号（主体房））",
      "location": {
        "latitude": 30.378205,
        "longitude": 120.048159
      }
    },
    {
      "id": "2na4t2g8zaxm56hz2il",
      "name": "瓶窑吴江大润发F",
      "address": "羊城路77号",
      "location": {
        "latitude": 30.375071,
        "longitude": 119.978188
      }
    },
    {
      "id": "ipaq5rkuhuem56hz3ds",
      "name": "家得乐城集生活精品超市",
      "address": "江干区九合路与彭文巷交叉口七堡花园城九和路上北门",
      "location": {
        "latitude": 30.305799,
        "longitude": 120.252784
      }
    },
    {
      "id": "i6hu46ld27bm56hz3dt",
      "name": "雨涵食品商贸",
      "address": "勾庄市场1号市场",
      "location": {
        "latitude": 30.36385,
        "longitude": 120.099309
      }
    },
    {
      "id": "4wibonmnu68m56hz45r",
      "name": "瓶窑溪东路天猫小店F",
      "address": "杭州瓶窑镇溪东路45号",
      "location": {
        "latitude": 30.371016,
        "longitude": 119.971379
      }
    },
    {
      "id": "rcge2dhltfem56hz4xs",
      "name": "小芳超市亲亲家园店",
      "address": "余杭区三和大街西85号",
      "location": {
        "latitude": 30.421774,
        "longitude": 119.917687
      }
    },
    {
      "id": "w2gn7vkiordm56hz4xt",
      "name": "勾庄景旺食品F",
      "address": "余杭区勾庄市场1号市场1-1-352号",
      "location": {
        "latitude": 30.36385,
        "longitude": 120.099309
      }
    },
    {
      "id": "4h49yg8i3oqm56hz4xt",
      "name": "仓前京优客超市",
      "address": "杭州市余杭区仓前余杭塘路2853号宝龙广场",
      "location": {
        "latitude": 30.280181,
        "longitude": 119.989272
      }
    },
    {
      "id": "4haa65ogqbjm56hz5ps",
      "name": "雨润发港龙城购物中心",
      "address": "杭州市上城区明月桥路与鸿泰路交叉口",
      "location": {
        "latitude": 30.294025,
        "longitude": 120.223613
      }
    },
    {
      "id": "70mw4unnor7m56hz6hq",
      "name": "荀庄超市",
      "address": "杭州市余杭区良渚荀庄东门内左侧",
      "location": {
        "latitude": 30.380778,
        "longitude": 120.023342
      }
    },
    {
      "id": "jfipzwbvi6m56hz6hs",
      "name": "梅仙副食品店（原荣年副食）",
      "address": "五杭菜场对面繁荣路22号",
      "location": {
        "latitude": 30.495796,
        "longitude": 120.275468
      }
    },
    {
      "id": "ng0jcdafc9mm56hz79p",
      "name": "北京联华三墩店",
      "address": "公平路同仁家园地下一层)",
      "location": {
        "latitude": 30.326721,
        "longitude": 120.077681
      }
    },
    {
      "id": "4dr5mu7tisum56hz79r",
      "name": "杭州大红鹰超市有限公司",
      "address": "临平北大街160号",
      "location": {
        "latitude": 30.423529,
        "longitude": 120.302498
      }
    },
    {
      "id": "93fr4miccwm56hz81s",
      "name": "章翰副食品（原勾庄市场叔和批发F）",
      "address": "余杭区勾庄市场2-1-235",
      "location": {
        "latitude": 30.36385,
        "longitude": 120.099309
      }
    },
    {
      "id": "nco8rh1pvtmm56hz8tp",
      "name": "虎哥超市郡南店F",
      "address": "余杭区良渚街道文化村白鹰郡南9-101A商铺",
      "location": {
        "latitude": 30.358732,
        "longitude": 120.022957
      }
    },
    {
      "id": "t4shgbsk5ym56hz9pu",
      "name": "华晨超市（原良渚石榴派花苑杭州华联）",
      "address": "杭州市余杭区良渚街道东西大道与新104国道交汇处",
      "location": {
        "latitude": 30.366372,
        "longitude": 120.050526
      }
    },
    {
      "id": "0ph3kd7r41tlm56hz9py",
      "name": "惠客隆超市F",
      "address": "杭州华中南路668号2幢",
      "location": {
        "latitude": 30.323429,
        "longitude": 120.201936
      }
    },
    {
      "id": "c1btgi9pltum56hzaht",
      "name": "勾庄市场姚峰商行F",
      "address": "余杭区勾庄市场2-1-292",
      "location": {
        "latitude": 30.36385,
        "longitude": 120.099309
      }
    },
    {
      "id": "g0l1g8jcm5rm56hzaht",
      "name": "西湖区亿安鲸选生鲜超市（紫金店）",
      "address": "西湖区金庄路紫金生活广场",
      "location": {
        "latitude": 30.340748,
        "longitude": 120.070829
      }
    },
    {
      "id": "69xwvf5r3rum56hzb9n",
      "name": "仓前鹿先森社群折扣超市(云港店)",
      "address": "杭州市余杭区仓前街道三仓路2号",
      "location": {
        "latitude": 30.259756,
        "longitude": 119.950369
      }
    },
    {
      "id": "5poa9x2uibkm56hzc1k",
      "name": "嘉兴比那多超市龙鼎万达店",
      "address": "嘉兴市经开万达广场A座负一楼",
      "location": {
        "latitude": 30.181056,
        "longitude": 120.251338
      }
    },
    {
      "id": "z3l3tcdik5im56hzcw2",
      "name": "杭橙超市超山店",
      "address": "杭州市临平区杭辰星万里",
      "location": {
        "latitude": 30.459804,
        "longitude": 120.219191
      }
    },
    {
      "id": "umbr3wp8jmjm56hzcw3",
      "name": "浙里冠超市F（原互满超市吉鸿家园店）F",
      "address": "杭州市西湖区联鸿街",
      "location": {
        "latitude": 30.346778,
        "longitude": 120.066551
      }
    },
    {
      "id": "f57feht0k5dm56hzdnx",
      "name": "临平悦爱超市F",
      "address": "钱江工业园宁桥大道与兴国路",
      "location": {
        "latitude": 30.453253,
        "longitude": 120.244495
      }
    },
    {
      "id": "7bvct8yhelpm56hzefr",
      "name": "九仟客(景溪北苑店)",
      "address": "杭州市西湖区景溪北苑联良路北100米",
      "location": {
        "latitude": 30.351325,
        "longitude": 120.066337
      }
    },
    {
      "id": "rwy32ucfro8m56hzf7u",
      "name": "汪洋批发商场F",
      "address": "余杭区乔井路葛家车村1组214号",
      "location": {
        "latitude": 30.349956,
        "longitude": 120.260353
      }
    },
    {
      "id": "cjjsrzpioenm56hzfzp",
      "name": "下沙再隆便利店",
      "address": "钱塘区围垦街与五洋路交叉口北40米",
      "location": {
        "latitude": 30.330243,
        "longitude": 120.326123
      }
    },
    {
      "id": "d9fcmalg8xam56hzfzq",
      "name": "紫金创业园之上便利店",
      "address": "杭州市西湖区三墩镇石祥西路859号",
      "location": {
        "latitude": 30.30819,
        "longitude": 120.075398
      }
    },
    {
      "id": "dcgzbjhkjxfm56hzgum",
      "name": "文晖超市，全福路",
      "address": "中国浙江省杭州市全福桥路416号",
      "location": {
        "latitude": 30.301003,
        "longitude": 120.201054
      }
    },
    {
      "id": "u5l1qjvp7hfm56hzgup",
      "name": "德清雷甸镇江南超市",
      "address": "德清县雷甸镇塘北村普善埭组61号庆云路88号",
      "location": {
        "latitude": 30.240517,
        "longitude": 120.007079
      }
    },
    {
      "id": "9ghi22hs95gm56hzgur",
      "name": "杭州临平加米超市 （原兴国路6933生活超市）",
      "address": "杭州市余杭区兴国路与国支路交叉口南20米",
      "location": {
        "latitude": 30.297513,
        "longitude": 120.30135
      }
    },
    {
      "id": "9pi7g0u7rim56hzhmn",
      "name": "海宁许村易城副食",
      "address": "海宁市许村硖许公路与天顺路交叉口西100米",
      "location": {
        "latitude": 30.499008,
        "longitude": 120.307791
      }
    },
    {
      "id": "4wwq7zf9e6cm56hzhmo",
      "name": "黄湖时代联华",
      "address": "余杭区黄湖镇通达路58号",
      "location": {
        "latitude": 30.449083,
        "longitude": 119.81022
      }
    }
  ],
  "unlocatedStores": [
    {
      "id": "6h0h6xwvlytm56hyoal",
      "name": "海港沈士店",
      "address": "海宁市许村镇沈士街文胜路20号"
    },
    {
      "id": "xgqowq4ngi7m56hyygz",
      "name": "小芳商城店F",
      "address": "禹航994号"
    },
    {
      "id": "blqmh9yd01lm56hz03p",
      "name": "钟管冉升副食店",
      "address": "浙江省湖州市德清县环城北路726号"
    },
    {
      "id": "8dxi4mvnx9m56hz0yo",
      "name": "德清钟管姚晶副食",
      "address": "德清钟管镇文昌路37号"
    },
    {
      "id": "bz9t78t22ovm56hz2io",
      "name": "闽航食品",
      "address": ".勾庄物流1一1--508号"
    },
    {
      "id": "5ad8xx6haghm56hz5pp",
      "name": "兄弟自选商场F",
      "address": "杭州.余杭区五杭街道菜场对面兄弟自选"
    },
    {
      "id": "5vkmxi8c69lm56hz5pr",
      "name": "祖祥副食",
      "address": "五杭菜场对面"
    },
    {
      "id": "fh6866l6upom56hz8u1",
      "name": "德清钟管农贸市场小芳副食",
      "address": "杭州湖州市德清县钟管镇农贸市场1号"
    },
    {
      "id": "2d1xanriqp9m56hz9pz",
      "name": "五杭杭州华联",
      "address": "五杭菜场对面"
    },
    {
      "id": "5re2uafm8him56hzc1i",
      "name": "勾庄囿春食品（原振兴）",
      "address": "勾庄市场2号市场117号"
    },
    {
      "id": "06h3gwckrcc4m56hzfzr",
      "name": "雷甸悠百佳",
      "address": "湖州市德清县雷甸镇中心北路40号"
    },
    {
      "id": "enpre0cxks9m56hzhmo",
      "name": "安琪儿晓晨",
      "address": "江干区美博城137～140号"
    }
  ]
}