{
  "stores": [
    {
      "id": "8n812aonh3bm9wkbq7v",
      "name": "小芳超市良熟店",
      "address": "余杭区世纪大道西良熟新苑989号",
      "location": {
        "latitude": 30.393833,
        "longitude": 120.281751
      }
    },
    {
      "id": "j2kivg6x4gm9wkbq7x",
      "name": "华先森(七贤郡店)",
      "address": "杭州市余杭区良诸七贤郡矿坑对面",
      "location": {
        "latitude": 30.348134,
        "longitude": 120.002435
      }
    },
    {
      "id": "u8167svbgpsm9wkbr09",
      "name": "福记食品",
      "address": "笕丁路168号大世界商城14幢b1号.",
      "location": {
        "latitude": 30.333038,
        "longitude": 120.222877
      }
    },
    {
      "id": "c8jksk37jtm9wkbrs6",
      "name": "茁壮食品f",
      "address": "笕丁路168号大世界14幢a4号",
      "location": {
        "latitude": 30.333038,
        "longitude": 120.222877
      }
    },
    {
      "id": "a430bfeuzacm9wkbrs6",
      "name": "杭州市拱墅区诸宏程便利店",
      "address": "杭州市拱墅区新文路33号，天堂e谷106室（园区北门进来正对门面）",
      "location": {
        "latitude": 30.336571,
        "longitude": 120.107511
      }
    },
    {
      "id": "xdmu9esnuajm9wkbsk4",
      "name": "汪洋批发商场F",
      "address": "余杭区乔井路葛家车村1组214号",
      "location": {
        "latitude": 30.349956,
        "longitude": 120.260353
      }
    },
    {
      "id": "7ddbf81d53vm9wkbtbz",
      "name": "苏杭汇新市店",
      "address": "湖州市德清县环西路66号",
      "location": {
        "latitude": 30.026465,
        "longitude": 120.023838
      }
    },
    {
      "id": "vjocam7mwqlm9wkbtc0",
      "name": "磐汇",
      "address": "笕丁路168号7幢b7号.",
      "location": {
        "latitude": 30.333221,
        "longitude": 120.22438
      }
    },
    {
      "id": "6u4w5ul6uhim9wkbtc1",
      "name": "亿家汇鲜生活超市店",
      "address": "湖州市德清县君望府亿家汇鲜生活超市",
      "location": {
        "latitude": 30.346942,
        "longitude": 120.206797
      }
    },
    {
      "id": "2q9z7gqxgv9m9wkbu41",
      "name": "小芳君临天下店",
      "address": "东湖南路380号",
      "location": {
        "latitude": 30.405752,
        "longitude": 120.313227
      }
    },
    {
      "id": "c7xz01kwxyim9wkbuvy",
      "name": "鲍玉芳副食品店",
      "address": "中国浙江省杭州市余杭区石横线",
      "location": {
        "latitude": 30.187119,
        "longitude": 119.857223
      }
    },
    {
      "id": "lskp1xb7igm9wkbvo0",
      "name": "浙江美浓集团食堂超市",
      "address": "余杭区塘栖星河路春晖小区北门",
      "location": {
        "latitude": 30.490074,
        "longitude": 120.244071
      }
    },
    {
      "id": "buippp0nmvlm9wkbvo2",
      "name": "互惠超市(和苑店)f",
      "address": "西湖区三墩甲来路79号",
      "location": {
        "latitude": 30.338342,
        "longitude": 120.067029
      }
    },
    {
      "id": "7zt12u5i71lm9wkbwg4",
      "name": "杭州聚学林食品贸易有限公司",
      "address": "杭州市学林街1776号",
      "location": {
        "latitude": 30.315001,
        "longitude": 120.310838
      }
    },
    {
      "id": "a9ellkbillkm9wkbwg5",
      "name": "久亿商贸（原勇金大世界店）",
      "address": "中国浙江省杭州市江干区笕丁路",
      "location": {
        "latitude": 30.32304,
        "longitude": 120.493941
      }
    },
    {
      "id": "jdpvvcthbom9wkbx83",
      "name": "扬阳食品批发部f",
      "address": "江干区杭海路1189号（九堡金海城对面）",
      "location": {
        "latitude": 30.308949,
        "longitude": 120.26685
      }
    },
    {
      "id": "nk4flt9finkm9wkbx8a",
      "name": "临平小芳超市人民广场店",
      "address": "临平镇人民大道638号",
      "location": {
        "latitude": 30.412136,
        "longitude": 120.30556
      }
    },
    {
      "id": "qx00xgexgr9m9wkbx8b",
      "name": "左邻右舍超市荆山店",
      "address": "中国浙江省杭州市余杭区荆山湾路荆山翠谷小区门口",
      "location": {
        "latitude": 30.233182,
        "longitude": 120.0315
      }
    },
    {
      "id": "3dzsx914vh4m9wkbys3",
      "name": "崇义路怡佳超市F",
      "address": "中国浙江省杭州市西湖区崇义路32号",
      "location": {
        "latitude": 30.281724,
        "longitude": 120.062335
      }
    },
    {
      "id": "8vrz59mwbgam9wkbys5",
      "name": "勾庄世纪华联f",
      "address": "杭州余杭区勾庄棕榈路61号",
      "location": {
        "latitude": 30.359772,
        "longitude": 120.086606
      }
    },
    {
      "id": "l36argmab28m9wkbzk4",
      "name": "云起路建超便利店F",
      "address": "杭州市西湖区蒋村街道西溪花园.紫菱苑东门旁",
      "location": {
        "latitude": 30.283371,
        "longitude": 120.063169
      }
    },
    {
      "id": "vib98n9tqsem9wkc0c7",
      "name": "小芳北大街店",
      "address": "临平北大街101-2号",
      "location": {
        "latitude": 30.422414,
        "longitude": 120.302819
      }
    },
    {
      "id": "hjy0c0yfwpm9wkc0c9",
      "name": "惠仁家园怡佳超市",
      "address": "西湖区荡鱼街慧仁家园南区1号",
      "location": {
        "latitude": 30.330493,
        "longitude": 120.077802
      }
    },
    {
      "id": "k5s3ibx6r6om9wkc14a",
      "name": "临平新洲路1065号18H便利店F",
      "address": "中国浙江省杭州市余杭区新洲路",
      "location": {
        "latitude": 30.273705,
        "longitude": 119.978742
      }
    },
    {
      "id": "5nafq58keuum9wkc14b",
      "name": "W余杭北苑生活超市",
      "address": "杭州市余杭区五繁慧路西溪北苑114号",
      "location": {
        "latitude": 30.29074,
        "longitude": 120.03696
      }
    },
    {
      "id": "povtcc76bg9m9wkc1w9",
      "name": "3S超市F",
      "address": "三墩镇清池路汇禾领府西商铺07号",
      "location": {
        "latitude": 30.324032,
        "longitude": 120.069987
      }
    },
    {
      "id": "huicclcenf8m9wkc1wa",
      "name": "每日兴商贸",
      "address": "浙江华胜钢塑制品有限公司",
      "location": {
        "latitude": 30.209787,
        "longitude": 120.307008
      }
    },
    {
      "id": "5ns68zv7d6m9wkc2ob",
      "name": "美青超市（原方桓自选）F",
      "address": "临平天荷路华惠家园门口",
      "location": {
        "latitude": 30.445747,
        "longitude": 120.317886
      }
    },
    {
      "id": "5b4xoi6nhpvm9wkc2oc",
      "name": "临平小芳横弄店",
      "address": "临平区临平街道后横弄41.43号",
      "location": {
        "latitude": 30.420679,
        "longitude": 120.302123
      }
    },
    {
      "id": "pz3ricwqk3em9wkc3gg",
      "name": "临平小芳超市 邱山店",
      "address": "临平镇邱山大街274号",
      "location": {
        "latitude": 30.422498,
        "longitude": 120.297889
      }
    },
    {
      "id": "t2sj3mx8rhkm9wkc3gh",
      "name": "轩轩副食西溪店",
      "address": "杭州市余杭区西溪花城东北区店32-2号",
      "location": {
        "latitude": 30.253995,
        "longitude": 120.035514
      }
    },
    {
      "id": "ra0odz32hn9m9wkc48e",
      "name": "小芳藕花洲大街",
      "address": "临平藕花洲大街185-191号",
      "location": {
        "latitude": 30.415317,
        "longitude": 120.29826
      }
    },
    {
      "id": "ovpnfs1cz5jm9wkc48f",
      "name": "盐仓好又多",
      "address": "盐仓镇观澜路5号",
      "location": {
        "latitude": 30.243813,
        "longitude": 120.237113
      }
    },
    {
      "id": "ywok19in8mm9wkc48f",
      "name": "星桥豪众超市",
      "address": "杭州市临平区五月花城藕花洲大街西段168-3",
      "location": {
        "latitude": 30.40093,
        "longitude": 120.269689
      }
    },
    {
      "id": "trh34jqq1am9wkc50f",
      "name": "绿惠超市1",
      "address": "中国浙江省杭州市余杭区学成街",
      "location": {
        "latitude": 30.273705,
        "longitude": 119.978742
      }
    },
    {
      "id": "u6vrxauhq9nm9wkc50f",
      "name": "望月商铺杭州华联F",
      "address": "紫荆花北路37号望月商铺58号杭州华联超市",
      "location": {
        "latitude": 30.31807,
        "longitude": 120.09067
      }
    },
    {
      "id": "0ckdknsttubnm9wkc50f",
      "name": "麦杆超市",
      "address": "杭州市西湖区三墩镇苏嘉路中海紫藤苑商铺106",
      "location": {
        "latitude": 30.324535,
        "longitude": 120.068088
      }
    },
    {
      "id": "ha8lmqk4livm9wkc5sd",
      "name": "梁鲜笙精品生活超市北辰之光店F",
      "address": "浙江省杭州市余杭区通运街216号",
      "location": {
        "latitude": 30.34321,
        "longitude": 120.124046
      }
    },
    {
      "id": "1svwq05evi8m9wkc6kb",
      "name": "中慧后勤（妇保）",
      "address": "浙江大学医学院附属妇产科医院湖滨园区-东门",
      "location": {
        "latitude": 30.218612,
        "longitude": 120.257258
      }
    },
    {
      "id": "cxr08eadusam9wkc6kb",
      "name": "东海水景城优易品生鲜超市",
      "address": "杭州市余杭区东海水景城南门",
      "location": {
        "latitude": 30.273705,
        "longitude": 119.978742
      }
    },
    {
      "id": "4swp18wl9kam9wkc6kb",
      "name": "勾庄澳芙食品",
      "address": "勾庄食品市场2号市场79号",
      "location": {
        "latitude": 30.374806,
        "longitude": 120.108341
      }
    },
    {
      "id": "xtyjfquhdnm9wkc7c9",
      "name": "小芳星桥银领时代",
      "address": "杭州市余杭区星桥银领时代公寓23-5",
      "location": {
        "latitude": 30.395844,
        "longitude": 120.261994
      }
    },
    {
      "id": "046tvzmsitx5m9wkc7cb",
      "name": "浙大超市玉泉教育店",
      "address": "浙大路38号浙大玉泉校区内",
      "location": {
        "latitude": 30.268259,
        "longitude": 120.123961
      }
    },
    {
      "id": "y34gq1wbytm9wkc84c",
      "name": "浙大教育超市启真名苑店",
      "address": "保俶路12号浙江大学西溪校区启真名苑10幢商铺1号",
      "location": {
        "latitude": 30.273854,
        "longitude": 120.143066
      }
    },
    {
      "id": "sfso5msitim9wkc8w5",
      "name": "易嘉利超市(塘栖店)",
      "address": "杭州市塘栖嘉凯城",
      "location": {
        "latitude": 30.474795,
        "longitude": 120.189635
      }
    },
    {
      "id": "2renj48l2imm9wkc9o3",
      "name": "小芳工力大厦店",
      "address": "杭州市余杭区星桥远展街59号(112-113)",
      "location": {
        "latitude": 30.381444,
        "longitude": 120.261872
      }
    },
    {
      "id": "1m91pytomz9m9wkc9o3",
      "name": "发到家星桥南路店-糖玩",
      "address": "临平区星桥南路七彩星商业中心B1",
      "location": {
        "latitude": 30.387807,
        "longitude": 120.26233
      }
    },
    {
      "id": "2zel7gyb047m9wkcafz",
      "name": "发到家星桥南路店",
      "address": "临平区星桥南路七彩星商业中心B1",
      "location": {
        "latitude": 30.387807,
        "longitude": 120.26233
      }
    },
    {
      "id": "unkr31tjjwam9wkcag0",
      "name": "优家超市F",
      "address": "通济路金地自在城",
      "location": {
        "latitude": 30.334017,
        "longitude": 120.072449
      }
    },
    {
      "id": "3ttsu2ucbckm9wkcb81",
      "name": "易嘉利超市(瓶窑店)",
      "address": "杭州余杭瓶窑嘉凯城",
      "location": {
        "latitude": 30.381605,
        "longitude": 119.975707
      }
    },
    {
      "id": "q0358pvr34m9wkcc03",
      "name": "小芳超市天都城店",
      "address": "香榭路33号",
      "location": {
        "latitude": 30.387223,
        "longitude": 120.248528
      }
    },
    {
      "id": "ys2crvlpibm9wkcc04",
      "name": "塘栖如海广济路",
      "address": "塘栖广济路158号",
      "location": {
        "latitude": 30.47131,
        "longitude": 120.187798
      }
    },
    {
      "id": "vxxb0gycdonm9wkccs0",
      "name": "临平小芳塘栖（水岸锦城店）F",
      "address": "塘栖镇水岸锦城运溪路125号",
      "location": {
        "latitude": 30.465468,
        "longitude": 120.187628
      }
    },
    {
      "id": "puc689ij43im9wkcdju",
      "name": "芳海食品",
      "address": "下沙湾南菜场内",
      "location": {
        "latitude": 30.332364,
        "longitude": 120.318248
      }
    },
    {
      "id": "1ugktf9buajm9wkcebs",
      "name": "铭雅苑联合一百F",
      "address": "中国浙江省杭州市余杭区金昌路",
      "location": {
        "latitude": 30.34677,
        "longitude": 120.128289
      }
    },
    {
      "id": "kqf4w9ski7pm9wkcf3q",
      "name": "统E省（莫家桥）F",
      "address": "杭州市余杭区莫家桥村",
      "location": {
        "latitude": 30.273705,
        "longitude": 119.978742
      }
    },
    {
      "id": "c63zk0ehxzlm9wkcf3r",
      "name": "星桥嘉润批发",
      "address": "临平东港路183号",
      "location": {
        "latitude": 30.397238,
        "longitude": 120.257181
      }
    },
    {
      "id": "yq4h250vmsm9wkcfvq",
      "name": "上海如海莫家桥",
      "address": "莫家桥村委旁",
      "location": {
        "latitude": 30.444757,
        "longitude": 120.163183
      }
    },
    {
      "id": "heqxojwc31vm9wkcfvq",
      "name": "禹越好搭档（多购乐便利店）",
      "address": "禹越商益西街菜场西门木桥路36号",
      "location": {
        "latitude": 30.151818,
        "longitude": 120.359236
      }
    },
    {
      "id": "07evl8gbe9nwm9wkci7g",
      "name": "星桥华先森社群折扣超市(枉山嘉苑店)",
      "address": "临平区星桥街道枉山嘉园二区二幢2-1",
      "location": {
        "latitude": 30.399,
        "longitude": 120.25863
      }
    },
    {
      "id": "govg2koqecm9wkci7h",
      "name": "杭州大红鹰超市有限公司",
      "address": "临平北大街160号",
      "location": {
        "latitude": 30.423529,
        "longitude": 120.302498
      }
    },
    {
      "id": "d5a6fzpf5rrm9wkci7i",
      "name": "新桥购物（原华联购物园里抖48号）",
      "address": "杭州市余杭区仁和镇新桥村园里斗同人木业旁边的华联购物园里抖48号",
      "location": {
        "latitude": 30.457566,
        "longitude": 120.142679
      }
    },
    {
      "id": "cwahk060hojm9wkcizh",
      "name": "小芳超市(塘栖人民路)F",
      "address": "杭州市余杭区塘栖镇人民路155号",
      "location": {
        "latitude": 30.273705,
        "longitude": 119.978742
      }
    },
    {
      "id": "hrlx8dszwxnm9wkcizi",
      "name": "小芳超市C龙洞店",
      "address": "临平区龙洞江南食品市场西侧",
      "location": {
        "latitude": 30.413431,
        "longitude": 120.223312
      }
    },
    {
      "id": "qo56si11tuam9wkcjrk",
      "name": "小芳塘栖里仁路店F",
      "address": "塘栖里仁路1号",
      "location": {
        "latitude": 30.481495,
        "longitude": 120.190905
      }
    },
    {
      "id": "cfu4c4vz13im9wkcjrl",
      "name": "临平绿惠超市F",
      "address": "杭州市余杭区临平兴国路195号",
      "location": {
        "latitude": 30.426315,
        "longitude": 120.261794
      }
    },
    {
      "id": "i75axc998eom9wkckjj",
      "name": "才法副食",
      "address": "雷甸一新大街308号",
      "location": {
        "latitude": 30.457287,
        "longitude": 120.127168
      }
    },
    {
      "id": "ge9zfnvktw4m9wkclbj",
      "name": "盛汇时代精品超市",
      "address": "湖州市德清县白云南路1188号洋华运河城市生活广场",
      "location": {
        "latitude": 30.182851,
        "longitude": 120.250968
      }
    },
    {
      "id": "hit9yxmdn9jm9wkcm3j",
      "name": "雷甸盛汇时代(孔雀城店)",
      "address": "湖州德清雷甸镇孔雀城",
      "location": {
        "latitude": 30.457287,
        "longitude": 120.127168
      }
    },
    {
      "id": "kcnluq4odd8m9wkcof9",
      "name": "黄湖红云批发部f",
      "address": "黄湖通达路32号",
      "location": {
        "latitude": 30.449208,
        "longitude": 119.811704
      }
    },
    {
      "id": "qxnrlo9nn0mm9wkcp77",
      "name": "颂购便利店F",
      "address": "杭州市临平区蒋家浜路318号A幢",
      "location": {
        "latitude": 30.375148,
        "longitude": 120.14122
      }
    },
    {
      "id": "v8uqxzz2ohm9wkcpz7",
      "name": "红星二锅头好又多超市（原好又多崇福山居69号F）",
      "address": "杭州市余杭区良渚镇良渚街道崇福山居东区八排69号",
      "location": {
        "latitude": 30.352183,
        "longitude": 120.021675
      }
    }
  ],
  "unlocatedStores": [
    {
      "id": "cpuh0tcjjzsm9wkbq7x",
      "name": "小芳超市闵家桥店",
      "address": "嘉兴海宁市南大街闵家桥锦苑9幢2号"
    },
    {
      "id": "oz3foik7spom9wkbr09",
      "name": "九千客（德清店）",
      "address": "中国浙江省湖州市德清县保利原乡千秋东街1999号"
    },
    {
      "id": "2aru15trgqm9wkbuvx",
      "name": "禹越小康百货商行F",
      "address": "浙江省湖州市德清县禹越镇新兴街81-83号正南方向90米"
    },
    {
      "id": "utuqo9772wm9wkbuvy",
      "name": "武康下柏根平超市",
      "address": "湖州市德清县武康镇下柏街放心超市"
    },
    {
      "id": "izqwwtwa9srm9wkbvo1",
      "name": "征球.大世界",
      "address": "8幢a9.b9大世界商城8幢A9号"
    },
    {
      "id": "t172z4w808om9wkbzk3",
      "name": "德清世纪联华",
      "address": "湖州市德清县下诸湖四都村"
    },
    {
      "id": "43o5u8h82zmm9wkbzk4",
      "name": "德清禹越欧润",
      "address": "湖州市德清县禹越镇振兴路越盛花园"
    },
    {
      "id": "mg2jlj19bum9wkc0c6",
      "name": "海港周王庙二店",
      "address": "海宁市周王庙镇诚信路18号"
    },
    {
      "id": "nw3r60tng5m9wkc2od",
      "name": "海港钱塘江店",
      "address": "海宁市周王庙镇石井万花街42号"
    },
    {
      "id": "3a22x5yu5odm9wkc5sc",
      "name": "园区服务中心便利店（原微海二店）",
      "address": "湖州市德清县乾元镇乾龙中路16号"
    },
    {
      "id": "rwqg1pruxdim9wkc8w6",
      "name": "海港沈士店",
      "address": "海宁市许村镇沈士街文胜路20号"
    },
    {
      "id": "rvisoi6fymm9wkcb81",
      "name": "德清龙栖庭院便利店",
      "address": "中国浙江省湖州市德清县龙门街26号"
    },
    {
      "id": "5z481b7y90pm9wkcb82",
      "name": "德清启龙食品商行",
      "address": "湖州市德清县跨塘街172号"
    },
    {
      "id": "7ndibb4nqe6m9wkcfvp",
      "name": "海港许村一店",
      "address": "海宁市许村镇勤俭路1号"
    },
    {
      "id": "qq659svrj5km9wkcgno",
      "name": "新世纪华联生鲜超市",
      "address": "湖州市德清县西郊路152号"
    },
    {
      "id": "ceas8qrzhzm9wkcizi",
      "name": "海港家纺城店",
      "address": "海宁市许村镇七号桥市场路9号"
    },
    {
      "id": "0xf50y70bxdom9wkckjj",
      "name": "德清县振兴路西港生活超市",
      "address": "浙江省湖州市德清县振兴路633"
    },
    {
      "id": "htla860kkxnm9wkclbh",
      "name": "嘉兴万悦贸易商行",
      "address": "海宁市许村镇前进村连树组村委大楼202室"
    },
    {
      "id": "dlakhuxpk5m9wkcnna",
      "name": "海港郭三店",
      "address": "海宁市盐官镇郭店建设路164号"
    },
    {
      "id": "77k2yekanqxm9wkcp76",
      "name": "德清雅颂府便利店",
      "address": "湖州市德清县雷甸镇孔雀城京杭上宸雅颂府东门旁"
    },
    {
      "id": "xxo08r9vm79m9wkcp77",
      "name": "德清利民便利店",
      "address": "湖州市德清县湖山路"
    }
  ]
}